{"_id":1,"absoluteHeight":65519.0,"addTime":1634046664026,"areoscopeUUID":"f62456fb-bbf7-43c5-8139-890ccd8a7ca7","flightIndex":1,"flightStartTime":1634046664026,"groundOrSky":0,"height":0.0,"homeLatitude":0.0,"homeLongitude":0.0,"isPushTimeOut":false,"lastDronePushUpdateTime":1634047287104,"lastDronePushUpdateTimeStr":"2021-10-12 17:01:27","lastServerUpdateTime":0,"latitude":0.0,"license":"\u0000","longitude":0.0,"personLatitude":0.0,"personLocUpdateTime":0,"personLongitude":0.0,"pitch":0,"plan":"Cannot exceed 90 characters","productType":"Mavic Pro","rawData":[16,2,-68,2,7,45,48,56,82,68,70,55,67,80,48,49,48,50,57,90,0,0,0,0,0,0,0,0,0,0,-17,-1,0,0,0,0,0,0,0,0,4,60,0,0,0,0,0,0,0,0,0,0,0,0,0,0,0,0,0,0,0,0,0,0,0,0,16,19,49,49,50,48,50,50,55,50,57,54,50,56,53,56,55,54,50,50,52,0],"rcID":0,"roll":0,"showLine":false,"sn":"08RDF7CP01029Z","srcType":3,"updateCount":510,"uuid":"1120227296285876224","xSpeed":0.0,"ySpeed":0.0,"yaw":333,"zSpeed":0.0}
{"_id":1,"absoluteHeight":65519.0,"addTime":1634046664026,"areoscopeUUID":"f62456fb-bbf7-43c5-8139-890ccd8a7ca7","flightIndex":1,"flightStartTime":1634046664026,"groundOrSky":0,"height":0.0,"homeLatitude":0.0,"homeLongitude":0.0,"isPushTimeOut":false,"lastDronePushUpdateTime":1634047289194,"lastDronePushUpdateTimeStr":"2021-10-12 17:01:29","lastServerUpdateTime":0,"latitude":0.0,"license":"\u0000","longitude":0.0,"personLatitude":0.0,"personLocUpdateTime":0,"personLongitude":0.0,"pitch":0,"plan":"Cannot exceed 90 characters","productType":"Mavic Pro","rawData":[16,2,-66,2,7,45,48,56,82,68,70,55,67,80,48,49,48,50,57,90,0,0,0,0,0,0,0,0,0,0,-17,-1,0,0,0,0,0,0,0,0,4,60,0,0,0,0,0,0,0,0,0,0,0,0,0,0,0,0,0,0,0,0,0,0,0,0,16,19,49,49,50,48,50,50,55,50,57,54,50,56,53,56,55,54,50,50,52,0],"rcID":0,"roll":0,"showLine":false,"sn":"08RDF7CP01029Z","srcType":3,"updateCount":511,"uuid":"1120227296285876224","xSpeed":0.0,"ySpeed":0.0,"yaw":333,"zSpeed":0.0}
{"_id":1,"absoluteHeight":65519.0,"addTime":1634046664026,"areoscopeUUID":"f62456fb-bbf7-43c5-8139-890ccd8a7ca7","flightIndex":1,"flightStartTime":1634046664026,"groundOrSky":0,"height":0.0,"homeLatitude":0.0,"homeLongitude":0.0,"isPushTimeOut":false,"lastDronePushUpdateTime":1634047289924,"lastDronePushUpdateTimeStr":"2021-10-12 17:01:29","lastServerUpdateTime":0,"latitude":0.0,"license":"\u0000","longitude":0.0,"personLatitude":0.0,"personLocUpdateTime":0,"personLongitude":0.0,"pitch":0,"plan":"Cannot exceed 90 characters","productType":"Mavic Pro","rawData":[16,2,-66,2,7,45,48,56,82,68,70,55,67,80,48,49,48,50,57,90,0,0,0,0,0,0,0,0,0,0,-17,-1,0,0,0,0,0,0,0,0,4,60,0,0,0,0,0,0,0,0,0,0,0,0,0,0,0,0,0,0,0,0,0,0,0,0,16,19,49,49,50,48,50,50,55,50,57,54,50,56,53,56,55,54,50,50,52,0],"rcID":0,"roll":0,"showLine":false,"sn":"08RDF7CP01029Z","srcType":3,"updateCount":512,"uuid":"1120227296285876224","xSpeed":0.0,"ySpeed":0.0,"yaw":333,"zSpeed":0.0}
{"_id":1,"absoluteHeight":65519.0,"addTime":1634046664026,"areoscopeUUID":"f62456fb-bbf7-43c5-8139-890ccd8a7ca7","flightIndex":1,"flightStartTime":1634046664026,"groundOrSky":0,"height":0.0,"homeLatitude":0.0,"homeLongitude":0.0,"isPushTimeOut":false,"lastDronePushUpdateTime":1634047290455,"lastDronePushUpdateTimeStr":"2021-10-12 17:01:30","lastServerUpdateTime":0,"latitude":0.0,"license":"\u0000","longitude":0.0,"personLatitude":0.0,"personLocUpdateTime":0,"personLongitude":0.0,"pitch":0,"plan":"Cannot exceed 90 characters","productType":"Mavic Pro","rawData":[16,2,-65,2,7,45,48,56,82,68,70,55,67,80,48,49,48,50,57,90,0,0,0,0,0,0,0,0,0,0,-17,-1,0,0,0,0,0,0,0,0,4,60,0,0,0,0,0,0,0,0,0,0,0,0,0,0,0,0,0,0,0,0,0,0,0,0,16,19,49,49,50,48,50,50,55,50,57,54,50,56,53,56,55,54,50,50,52,0],"rcID":0,"roll":0,"showLine":false,"sn":"08RDF7CP01029Z","srcType":3,"updateCount":513,"uuid":"1120227296285876224","xSpeed":0.0,"ySpeed":0.0,"yaw":333,"zSpeed":0.0}
{"_id":1,"absoluteHeight":65519.0,"addTime":1634046664026,"areoscopeUUID":"f62456fb-bbf7-43c5-8139-890ccd8a7ca7","flightIndex":1,"flightStartTime":1634046664026,"groundOrSky":0,"height":0.0,"homeLatitude":0.0,"homeLongitude":0.0,"isPushTimeOut":false,"lastDronePushUpdateTime":1634047293091,"lastDronePushUpdateTimeStr":"2021-10-12 17:01:33","lastServerUpdateTime":0,"latitude":0.0,"license":"\u0000","longitude":0.0,"personLatitude":0.0,"personLocUpdateTime":0,"personLongitude":0.0,"pitch":0,"plan":"Cannot exceed 90 characters","productType":"Mavic Pro","rawData":[16,2,-63,2,7,45,48,56,82,68,70,55,67,80,48,49,48,50,57,90,0,0,0,0,0,0,0,0,0,0,-17,-1,0,0,0,0,0,0,0,0,3,60,0,0,0,0,0,0,0,0,0,0,0,0,0,0,0,0,0,0,0,0,0,0,0,0,16,19,49,49,50,48,50,50,55,50,57,54,50,56,53,56,55,54,50,50,52,0],"rcID":0,"roll":0,"showLine":false,"sn":"08RDF7CP01029Z","srcType":3,"updateCount":514,"uuid":"1120227296285876224","xSpeed":0.0,"ySpeed":0.0,"yaw":333,"zSpeed":0.0}
{"_id":1,"absoluteHeight":65519.0,"addTime":1634046664026,"areoscopeUUID":"f62456fb-bbf7-43c5-8139-890ccd8a7ca7","flightIndex":1,"flightStartTime":1634046664026,"groundOrSky":0,"height":0.0,"homeLatitude":0.0,"homeLongitude":0.0,"isPushTimeOut":false,"lastDronePushUpdateTime":1634047293719,"lastDronePushUpdateTimeStr":"2021-10-12 17:01:33","lastServerUpdateTime":0,"latitude":0.0,"license":"\u0000","longitude":0.0,"personLatitude":0.0,"personLocUpdateTime":0,"personLongitude":0.0,"pitch":0,"plan":"Cannot exceed 90 characters","productType":"Mavic Pro","rawData":[16,2,-62,2,7,45,48,56,82,68,70,55,67,80,48,49,48,50,57,90,0,0,0,0,0,0,0,0,0,0,-17,-1,0,0,0,0,0,0,1,0,3,60,0,0,0,0,0,0,0,0,0,0,0,0,0,0,0,0,0,0,0,0,0,0,0,0,16,19,49,49,50,48,50,50,55,50,57,54,50,56,53,56,55,54,50,50,52,0],"rcID":0,"roll":0,"showLine":false,"sn":"08RDF7CP01029Z","srcType":3,"updateCount":515,"uuid":"1120227296285876224","xSpeed":0.0,"ySpeed":0.0,"yaw":333,"zSpeed":0.01}
{"_id":1,"absoluteHeight":65519.0,"addTime":1634046664026,"areoscopeUUID":"f62456fb-bbf7-43c5-8139-890ccd8a7ca7","flightIndex":1,"flightStartTime":1634046664026,"groundOrSky":0,"height":0.0,"homeLatitude":0.0,"homeLongitude":0.0,"isPushTimeOut":false,"lastDronePushUpdateTime":1634047294353,"lastDronePushUpdateTimeStr":"2021-10-12 17:01:34","lastServerUpdateTime":0,"latitude":0.0,"license":"\u0000","longitude":0.0,"personLatitude":0.0,"personLocUpdateTime":0,"personLongitude":0.0,"pitch":0,"plan":"Cannot exceed 90 characters","productType":"Mavic Pro","rawData":[16,2,-61,2,7,45,48,56,82,68,70,55,67,80,48,49,48,50,57,90,0,0,0,0,0,0,0,0,0,0,-17,-1,0,0,0,0,0,0,0,0,5,60,0,0,0,0,0,0,0,0,0,0,0,0,0,0,0,0,0,0,0,0,0,0,0,0,16,19,49,49,50,48,50,50,55,50,57,54,50,56,53,56,55,54,50,50,52,0],"rcID":0,"roll":0,"showLine":false,"sn":"08RDF7CP01029Z","srcType":3,"updateCount":516,"uuid":"1120227296285876224","xSpeed":0.0,"ySpeed":0.0,"yaw":333,"zSpeed":0.0}
{"_id":1,"absoluteHeight":65519.0,"addTime":1634046664026,"areoscopeUUID":"f62456fb-bbf7-43c5-8139-890ccd8a7ca7","flightIndex":1,"flightStartTime":1634046664026,"groundOrSky":0,"height":0.0,"homeLatitude":0.0,"homeLongitude":0.0,"isPushTimeOut":false,"lastDronePushUpdateTime":1634047294956,"lastDronePushUpdateTimeStr":"2021-10-12 17:01:34","lastServerUpdateTime":0,"latitude":0.0,"license":"\u0000","longitude":0.0,"personLatitude":0.0,"personLocUpdateTime":0,"personLongitude":0.0,"pitch":0,"plan":"Cannot exceed 90 characters","productType":"Mavic Pro","rawData":[16,2,-61,2,7,45,48,56,82,68,70,55,67,80,48,49,48,50,57,90,0,0,0,0,0,0,0,0,0,0,-17,-1,0,0,0,0,0,0,0,0,5,60,0,0,0,0,0,0,0,0,0,0,0,0,0,0,0,0,0,0,0,0,0,0,0,0,16,19,49,49,50,48,50,50,55,50,57,54,50,56,53,56,55,54,50,50,52,0],"rcID":0,"roll":0,"showLine":false,"sn":"08RDF7CP01029Z","srcType":3,"updateCount":517,"uuid":"1120227296285876224","xSpeed":0.0,"ySpeed":0.0,"yaw":333,"zSpeed":0.0}
{"_id":1,"absoluteHeight":65519.0,"addTime":1634046664026,"areoscopeUUID":"f62456fb-bbf7-43c5-8139-890ccd8a7ca7","flightIndex":1,"flightStartTime":1634046664026,"groundOrSky":0,"height":0.0,"homeLatitude":0.0,"homeLongitude":0.0,"isPushTimeOut":false,"lastDronePushUpdateTime":1634047295542,"lastDronePushUpdateTimeStr":"2021-10-12 17:01:35","lastServerUpdateTime":0,"latitude":0.0,"license":"\u0000","longitude":0.0,"personLatitude":0.0,"personLocUpdateTime":0,"personLongitude":0.0,"pitch":0,"plan":"Cannot exceed 90 characters","productType":"Mavic Pro","rawData":[16,2,-60,2,7,45,48,56,82,68,70,55,67,80,48,49,48,50,57,90,0,0,0,0,0,0,0,0,0,0,-17,-1,0,0,0,0,0,0,0,0,4,60,0,0,0,0,0,0,0,0,0,0,0,0,0,0,0,0,0,0,0,0,0,0,0,0,16,19,49,49,50,48,50,50,55,50,57,54,50,56,53,56,55,54,50,50,52,0],"rcID":0,"roll":0,"showLine":false,"sn":"08RDF7CP01029Z","srcType":3,"updateCount":518,"uuid":"1120227296285876224","xSpeed":0.0,"ySpeed":0.0,"yaw":333,"zSpeed":0.0}
{"_id":1,"absoluteHeight":65519.0,"addTime":1634046664026,"areoscopeUUID":"f62456fb-bbf7-43c5-8139-890ccd8a7ca7","flightIndex":1,"flightStartTime":1634046664026,"groundOrSky":0,"height":0.0,"homeLatitude":0.0,"homeLongitude":0.0,"isPushTimeOut":false,"lastDronePushUpdateTime":1634047296136,"lastDronePushUpdateTimeStr":"2021-10-12 17:01:36","lastServerUpdateTime":0,"latitude":0.0,"license":"\u0000","longitude":0.0,"personLatitude":0.0,"personLocUpdateTime":0,"personLongitude":0.0,"pitch":0,"plan":"Cannot exceed 90 characters","productType":"Mavic Pro","rawData":[17,48,56,82,68,70,55,67,80,48,49,48,50,57,90,0,0,-52,-86,2,31,0,64,35,64,67,97,110,110,111,116,32,101,120,99,101,101,100,32,57,48,32,99,104,97,114,97,99,116,101,114,115,0,0,0,0,0,0,0,0,0,0,0,0,0,0,0,0,0,0,0,0,0,0,0,0,0,0,0,0,0,0,0,0,0,0,0,0,0,0,0,0,0,0,0,0,0,0,0,0,0,0,0,0,0,0,0,0,0,0,0,0,0,0,0,0,0,0,0,0,0,0,0,0,0,0,0,0,0,0,0,0,0,0,0,0,0,0,0,0,0],"rcID":0,"roll":0,"showLine":false,"sn":"08RDF7CP01029Z","srcType":3,"updateCount":519,"uuid":"1120227296285876224","xSpeed":0.0,"ySpeed":0.0,"yaw":333,"zSpeed":0.0}
{"_id":1,"absoluteHeight":65519.0,"addTime":1634046664026,"areoscopeUUID":"f62456fb-bbf7-43c5-8139-890ccd8a7ca7","flightIndex":1,"flightStartTime":1634046664026,"groundOrSky":0,"height":0.0,"homeLatitude":0.0,"homeLongitude":0.0,"isPushTimeOut":false,"lastDronePushUpdateTime":1634047296737,"lastDronePushUpdateTimeStr":"2021-10-12 17:01:36","lastServerUpdateTime":0,"latitude":0.0,"license":"\u0000","longitude":0.0,"personLatitude":0.0,"personLocUpdateTime":0,"personLongitude":0.0,"pitch":0,"plan":"Cannot exceed 90 characters","productType":"Mavic Pro","rawData":[16,2,-59,2,7,45,48,56,82,68,70,55,67,80,48,49,48,50,57,90,0,0,0,0,0,0,0,0,0,0,-17,-1,0,0,0,0,0,0,0,0,4,60,0,0,0,0,0,0,0,0,0,0,0,0,0,0,0,0,0,0,0,0,0,0,0,0,16,19,49,49,50,48,50,50,55,50,57,54,50,56,53,56,55,54,50,50,52,0],"rcID":0,"roll":0,"showLine":false,"sn":"08RDF7CP01029Z","srcType":3,"updateCount":520,"uuid":"1120227296285876224","xSpeed":0.0,"ySpeed":0.0,"yaw":333,"zSpeed":0.0}
{"_id":1,"absoluteHeight":65519.0,"addTime":1634046664026,"areoscopeUUID":"f62456fb-bbf7-43c5-8139-890ccd8a7ca7","flightIndex":1,"flightStartTime":1634046664026,"groundOrSky":0,"height":0.0,"homeLatitude":0.0,"homeLongitude":0.0,"isPushTimeOut":false,"lastDronePushUpdateTime":1634047297607,"lastDronePushUpdateTimeStr":"2021-10-12 17:01:37","lastServerUpdateTime":0,"latitude":0.0,"license":"\u0000","longitude":0.0,"personLatitude":0.0,"personLocUpdateTime":0,"personLongitude":0.0,"pitch":0,"plan":"Cannot exceed 90 characters","productType":"Mavic Pro","rawData":[16,2,-58,2,7,45,48,56,82,68,70,55,67,80,48,49,48,50,57,90,0,0,0,0,0,0,0,0,0,0,-17,-1,0,0,0,0,0,0,0,0,4,60,0,0,0,0,0,0,0,0,0,0,0,0,0,0,0,0,0,0,0,0,0,0,0,0,16,19,49,49,50,48,50,50,55,50,57,54,50,56,53,56,55,54,50,50,52,0],"rcID":0,"roll":0,"showLine":false,"sn":"08RDF7CP01029Z","srcType":3,"updateCount":521,"uuid":"1120227296285876224","xSpeed":0.0,"ySpeed":0.0,"yaw":333,"zSpeed":0.0}
{"_id":1,"absoluteHeight":65519.0,"addTime":1634046664026,"areoscopeUUID":"f62456fb-bbf7-43c5-8139-890ccd8a7ca7","flightIndex":1,"flightStartTime":1634046664026,"groundOrSky":0,"height":0.0,"homeLatitude":0.0,"homeLongitude":0.0,"isPushTimeOut":false,"lastDronePushUpdateTime":1634047298166,"lastDronePushUpdateTimeStr":"2021-10-12 17:01:38","lastServerUpdateTime":0,"latitude":0.0,"license":"\u0000","longitude":0.0,"personLatitude":0.0,"personLocUpdateTime":0,"personLongitude":0.0,"pitch":0,"plan":"Cannot exceed 90 characters","productType":"Mavic Pro","rawData":[16,2,-58,2,7,45,48,56,82,68,70,55,67,80,48,49,48,50,57,90,0,0,0,0,0,0,0,0,0,0,-17,-1,0,0,0,0,0,0,0,0,4,60,0,0,0,0,0,0,0,0,0,0,0,0,0,0,0,0,0,0,0,0,0,0,0,0,16,19,49,49,50,48,50,50,55,50,57,54,50,56,53,56,55,54,50,50,52,0],"rcID":0,"roll":0,"showLine":false,"sn":"08RDF7CP01029Z","srcType":3,"updateCount":522,"uuid":"1120227296285876224","xSpeed":0.0,"ySpeed":0.0,"yaw":333,"zSpeed":0.0}
{"_id":1,"absoluteHeight":65519.0,"addTime":1634046664026,"areoscopeUUID":"f62456fb-bbf7-43c5-8139-890ccd8a7ca7","flightIndex":1,"flightStartTime":1634046664026,"groundOrSky":0,"height":0.0,"homeLatitude":0.0,"homeLongitude":0.0,"isPushTimeOut":false,"lastDronePushUpdateTime":1634047299318,"lastDronePushUpdateTimeStr":"2021-10-12 17:01:39","lastServerUpdateTime":0,"latitude":0.0,"license":"\u0000","longitude":0.0,"personLatitude":0.0,"personLocUpdateTime":0,"personLongitude":0.0,"pitch":0,"plan":"Cannot exceed 90 characters","productType":"Mavic Pro","rawData":[16,2,-56,2,7,45,48,56,82,68,70,55,67,80,48,49,48,50,57,90,0,0,0,0,0,0,0,0,0,0,-17,-1,0,0,0,0,0,0,0,0,3,60,0,0,0,0,0,0,0,0,0,0,0,0,0,0,0,0,0,0,0,0,0,0,0,0,16,19,49,49,50,48,50,50,55,50,57,54,50,56,53,56,55,54,50,50,52,0],"rcID":0,"roll":0,"showLine":false,"sn":"08RDF7CP01029Z","srcType":3,"updateCount":523,"uuid":"1120227296285876224","xSpeed":0.0,"ySpeed":0.0,"yaw":333,"zSpeed":0.0}
{"_id":1,"absoluteHeight":65519.0,"addTime":1634046664026,"areoscopeUUID":"f62456fb-bbf7-43c5-8139-890ccd8a7ca7","flightIndex":1,"flightStartTime":1634046664026,"groundOrSky":0,"height":0.0,"homeLatitude":0.0,"homeLongitude":0.0,"isPushTimeOut":false,"lastDronePushUpdateTime":1634047300561,"lastDronePushUpdateTimeStr":"2021-10-12 17:01:40","lastServerUpdateTime":0,"latitude":0.0,"license":"\u0000","longitude":0.0,"personLatitude":0.0,"personLocUpdateTime":0,"personLongitude":0.0,"pitch":0,"plan":"Cannot exceed 90 characters","productType":"Mavic Pro","rawData":[16,2,-55,2,7,45,48,56,82,68,70,55,67,80,48,49,48,50,57,90,0,0,0,0,0,0,0,0,0,0,-17,-1,0,0,0,0,0,0,0,0,5,60,0,0,0,0,0,0,0,0,0,0,0,0,0,0,0,0,0,0,0,0,0,0,0,0,16,19,49,49,50,48,50,50,55,50,57,54,50,56,53,56,55,54,50,50,52,0],"rcID":0,"roll":0,"showLine":false,"sn":"08RDF7CP01029Z","srcType":3,"updateCount":524,"uuid":"1120227296285876224","xSpeed":0.0,"ySpeed":0.0,"yaw":333,"zSpeed":0.0}
{"_id":1,"absoluteHeight":65519.0,"addTime":1634046664026,"areoscopeUUID":"f62456fb-bbf7-43c5-8139-890ccd8a7ca7","flightIndex":1,"flightStartTime":1634046664026,"groundOrSky":0,"height":0.0,"homeLatitude":0.0,"homeLongitude":0.0,"isPushTimeOut":false,"lastDronePushUpdateTime":1634047301162,"lastDronePushUpdateTimeStr":"2021-10-12 17:01:41","lastServerUpdateTime":0,"latitude":0.0,"license":"\u0000","longitude":0.0,"personLatitude":0.0,"personLocUpdateTime":0,"personLongitude":0.0,"pitch":0,"plan":"Cannot exceed 90 characters","productType":"Mavic Pro","rawData":[17,48,56,82,68,70,55,67,80,48,49,48,50,57,90,0,0,-52,-86,2,31,0,64,35,64,67,97,110,110,111,116,32,101,120,99,101,101,100,32,57,48,32,99,104,97,114,97,99,116,101,114,115,0,0,0,0,0,0,0,0,0,0,0,0,0,0,0,0,0,0,0,0,0,0,0,0,0,0,0,0,0,0,0,0,0,0,0,0,0,0,0,0,0,0,0,0,0,0,0,0,0,0,0,0,0,0,0,0,0,0,0,0,0,0,0,0,0,0,0,0,0,0,0,0,0,0,0,0,0,0,0,0,0,0,0,0,0,0,0,0,0],"rcID":0,"roll":0,"showLine":false,"sn":"08RDF7CP01029Z","srcType":3,"updateCount":525,"uuid":"1120227296285876224","xSpeed":0.0,"ySpeed":0.0,"yaw":333,"zSpeed":0.0}
{"_id":1,"absoluteHeight":65519.0,"addTime":1634046664026,"areoscopeUUID":"f62456fb-bbf7-43c5-8139-890ccd8a7ca7","flightIndex":1,"flightStartTime":1634046664026,"groundOrSky":0,"height":0.0,"homeLatitude":0.0,"homeLongitude":0.0,"isPushTimeOut":false,"lastDronePushUpdateTime":1634047302662,"lastDronePushUpdateTimeStr":"2021-10-12 17:01:42","lastServerUpdateTime":0,"latitude":0.0,"license":"\u0000","longitude":0.0,"personLatitude":0.0,"personLocUpdateTime":0,"personLongitude":0.0,"pitch":0,"plan":"Cannot exceed 90 characters","productType":"Mavic Pro","rawData":[16,2,-53,2,7,45,48,56,82,68,70,55,67,80,48,49,48,50,57,90,0,0,0,0,0,0,0,0,0,0,-17,-1,0,0,0,0,0,0,0,0,6,60,0,0,0,0,0,0,0,0,0,0,0,0,0,0,0,0,0,0,0,0,0,0,0,0,16,19,49,49,50,48,50,50,55,50,57,54,50,56,53,56,55,54,50,50,52,0],"rcID":0,"roll":0,"showLine":false,"sn":"08RDF7CP01029Z","srcType":3,"updateCount":526,"uuid":"1120227296285876224","xSpeed":0.0,"ySpeed":0.0,"yaw":333,"zSpeed":0.0}
{"_id":1,"absoluteHeight":65519.0,"addTime":1634046664026,"areoscopeUUID":"f62456fb-bbf7-43c5-8139-890ccd8a7ca7","flightIndex":1,"flightStartTime":1634046664026,"groundOrSky":0,"height":0.0,"homeLatitude":0.0,"homeLongitude":0.0,"isPushTimeOut":false,"lastDronePushUpdateTime":1634047303246,"lastDronePushUpdateTimeStr":"2021-10-12 17:01:43","lastServerUpdateTime":0,"latitude":0.0,"license":"\u0000","longitude":0.0,"personLatitude":0.0,"personLocUpdateTime":0,"personLongitude":0.0,"pitch":0,"plan":"Cannot exceed 90 characters","productType":"Mavic Pro","rawData":[16,2,-52,2,7,45,48,56,82,68,70,55,67,80,48,49,48,50,57,90,0,0,0,0,0,0,0,0,0,0,-17,-1,0,0,0,0,0,0,0,0,6,60,0,0,0,0,0,0,0,0,0,0,0,0,0,0,0,0,0,0,0,0,0,0,0,0,16,19,49,49,50,48,50,50,55,50,57,54,50,56,53,56,55,54,50,50,52,0],"rcID":0,"roll":0,"showLine":false,"sn":"08RDF7CP01029Z","srcType":3,"updateCount":527,"uuid":"1120227296285876224","xSpeed":0.0,"ySpeed":0.0,"yaw":333,"zSpeed":0.0}
{"_id":1,"absoluteHeight":65519.0,"addTime":1634046664026,"areoscopeUUID":"f62456fb-bbf7-43c5-8139-890ccd8a7ca7","flightIndex":1,"flightStartTime":1634046664026,"groundOrSky":0,"height":0.0,"homeLatitude":0.0,"homeLongitude":0.0,"isPushTimeOut":false,"lastDronePushUpdateTime":1634047304436,"lastDronePushUpdateTimeStr":"2021-10-12 17:01:44","lastServerUpdateTime":0,"latitude":0.0,"license":"\u0000","longitude":0.0,"personLatitude":0.0,"personLocUpdateTime":0,"personLongitude":0.0,"pitch":0,"plan":"Cannot exceed 90 characters","productType":"Mavic Pro","rawData":[16,2,-51,2,7,45,48,56,82,68,70,55,67,80,48,49,48,50,57,90,0,0,0,0,0,0,0,0,0,0,-17,-1,0,0,0,0,0,0,0,0,6,60,0,0,0,0,0,0,0,0,0,0,0,0,0,0,0,0,0,0,0,0,0,0,0,0,16,19,49,49,50,48,50,50,55,50,57,54,50,56,53,56,55,54,50,50,52,0],"rcID":0,"roll":0,"showLine":false,"sn":"08RDF7CP01029Z","srcType":3,"updateCount":528,"uuid":"1120227296285876224","xSpeed":0.0,"ySpeed":0.0,"yaw":333,"zSpeed":0.0}
{"_id":1,"absoluteHeight":65519.0,"addTime":1634046664026,"areoscopeUUID":"f62456fb-bbf7-43c5-8139-890ccd8a7ca7","flightIndex":1,"flightStartTime":1634046664026,"groundOrSky":0,"height":0.0,"homeLatitude":0.0,"homeLongitude":0.0,"isPushTimeOut":false,"lastDronePushUpdateTime":1634047305005,"lastDronePushUpdateTimeStr":"2021-10-12 17:01:45","lastServerUpdateTime":0,"latitude":0.0,"license":"\u0000","longitude":0.0,"personLatitude":0.0,"personLocUpdateTime":0,"personLongitude":0.0,"pitch":0,"plan":"Cannot exceed 90 characters","productType":"Mavic Pro","rawData":[16,2,-50,2,7,45,48,56,82,68,70,55,67,80,48,49,48,50,57,90,0,0,0,0,0,0,0,0,0,0,-17,-1,0,0,0,0,0,0,0,0,7,60,0,0,0,0,0,0,0,0,0,0,0,0,0,0,0,0,0,0,0,0,0,0,0,0,16,19,49,49,50,48,50,50,55,50,57,54,50,56,53,56,55,54,50,50,52,0],"rcID":0,"roll":0,"showLine":false,"sn":"08RDF7CP01029Z","srcType":3,"updateCount":529,"uuid":"1120227296285876224","xSpeed":0.0,"ySpeed":0.0,"yaw":333,"zSpeed":0.0}
{"_id":1,"absoluteHeight":65519.0,"addTime":1634046664026,"areoscopeUUID":"f62456fb-bbf7-43c5-8139-890ccd8a7ca7","flightIndex":1,"flightStartTime":1634046664026,"groundOrSky":0,"height":0.0,"homeLatitude":0.0,"homeLongitude":0.0,"isPushTimeOut":false,"lastDronePushUpdateTime":1634047306356,"lastDronePushUpdateTimeStr":"2021-10-12 17:01:46","lastServerUpdateTime":0,"latitude":0.0,"license":"\u0000","longitude":0.0,"personLatitude":0.0,"personLocUpdateTime":0,"personLongitude":0.0,"pitch":0,"plan":"Cannot exceed 90 characters","productType":"Mavic Pro","rawData":[17,48,56,82,68,70,55,67,80,48,49,48,50,57,90,0,0,-52,-86,2,31,0,64,35,64,67,97,110,110,111,116,32,101,120,99,101,101,100,32,57,48,32,99,104,97,114,97,99,116,101,114,115,0,0,0,0,0,0,0,0,0,0,0,0,0,0,0,0,0,0,0,0,0,0,0,0,0,0,0,0,0,0,0,0,0,0,0,0,0,0,0,0,0,0,0,0,0,0,0,0,0,0,0,0,0,0,0,0,0,0,0,0,0,0,0,0,0,0,0,0,0,0,0,0,0,0,0,0,0,0,0,0,0,0,0,0,0,0,0,0,0],"rcID":0,"roll":0,"showLine":false,"sn":"08RDF7CP01029Z","srcType":3,"updateCount":530,"uuid":"1120227296285876224","xSpeed":0.0,"ySpeed":0.0,"yaw":333,"zSpeed":0.0}
{"_id":1,"absoluteHeight":65519.0,"addTime":1634046664026,"areoscopeUUID":"f62456fb-bbf7-43c5-8139-890ccd8a7ca7","flightIndex":1,"flightStartTime":1634046664026,"groundOrSky":0,"height":0.0,"homeLatitude":0.0,"homeLongitude":0.0,"isPushTimeOut":false,"lastDronePushUpdateTime":1634047307822,"lastDronePushUpdateTimeStr":"2021-10-12 17:01:47","lastServerUpdateTime":0,"latitude":0.0,"license":"\u0000","longitude":0.0,"personLatitude":0.0,"personLocUpdateTime":0,"personLongitude":0.0,"pitch":0,"plan":"Cannot exceed 90 characters","productType":"Mavic Pro","rawData":[16,2,-48,2,7,45,48,56,82,68,70,55,67,80,48,49,48,50,57,90,0,0,0,0,0,0,0,0,0,0,-17,-1,0,0,0,0,0,0,0,0,9,60,0,0,0,0,0,0,0,0,0,0,0,0,0,0,0,0,0,0,0,0,0,0,0,0,16,19,49,49,50,48,50,50,55,50,57,54,50,56,53,56,55,54,50,50,52,0],"rcID":0,"roll":0,"showLine":false,"sn":"08RDF7CP01029Z","srcType":3,"updateCount":531,"uuid":"1120227296285876224","xSpeed":0.0,"ySpeed":0.0,"yaw":333,"zSpeed":0.0}
{"_id":1,"absoluteHeight":65519.0,"addTime":1634046664026,"areoscopeUUID":"f62456fb-bbf7-43c5-8139-890ccd8a7ca7","flightIndex":1,"flightStartTime":1634046664026,"groundOrSky":0,"height":0.0,"homeLatitude":0.0,"homeLongitude":0.0,"isPushTimeOut":false,"lastDronePushUpdateTime":1634047308413,"lastDronePushUpdateTimeStr":"2021-10-12 17:01:48","lastServerUpdateTime":0,"latitude":0.0,"license":"\u0000","longitude":0.0,"personLatitude":0.0,"personLocUpdateTime":0,"personLongitude":0.0,"pitch":0,"plan":"Cannot exceed 90 characters","productType":"Mavic Pro","rawData":[16,2,-47,2,7,45,48,56,82,68,70,55,67,80,48,49,48,50,57,90,0,0,0,0,0,0,0,0,0,0,-17,-1,0,0,0,0,0,0,0,0,9,60,0,0,0,0,0,0,0,0,0,0,0,0,0,0,0,0,0,0,0,0,0,0,0,0,16,19,49,49,50,48,50,50,55,50,57,54,50,56,53,56,55,54,50,50,52,0],"rcID":0,"roll":0,"showLine":false,"sn":"08RDF7CP01029Z","srcType":3,"updateCount":532,"uuid":"1120227296285876224","xSpeed":0.0,"ySpeed":0.0,"yaw":333,"zSpeed":0.0}
{"_id":1,"absoluteHeight":65519.0,"addTime":1634046664026,"areoscopeUUID":"f62456fb-bbf7-43c5-8139-890ccd8a7ca7","flightIndex":1,"flightStartTime":1634046664026,"groundOrSky":0,"height":0.0,"homeLatitude":0.0,"homeLongitude":0.0,"isPushTimeOut":false,"lastDronePushUpdateTime":1634047309572,"lastDronePushUpdateTimeStr":"2021-10-12 17:01:49","lastServerUpdateTime":0,"latitude":0.0,"license":"\u0000","longitude":0.0,"personLatitude":0.0,"personLocUpdateTime":0,"personLongitude":0.0,"pitch":0,"plan":"Cannot exceed 90 characters","productType":"Mavic Pro","rawData":[16,2,-46,2,7,45,48,56,82,68,70,55,67,80,48,49,48,50,57,90,0,0,0,0,0,0,0,0,0,0,-17,-1,0,0,0,0,0,0,0,0,10,60,0,0,0,0,0,0,0,0,0,0,0,0,0,0,0,0,0,0,0,0,0,0,0,0,16,19,49,49,50,48,50,50,55,50,57,54,50,56,53,56,55,54,50,50,52,0],"rcID":0,"roll":0,"showLine":false,"sn":"08RDF7CP01029Z","srcType":3,"updateCount":533,"uuid":"1120227296285876224","xSpeed":0.0,"ySpeed":0.0,"yaw":333,"zSpeed":0.0}
{"_id":1,"absoluteHeight":65519.0,"addTime":1634046664026,"areoscopeUUID":"f62456fb-bbf7-43c5-8139-890ccd8a7ca7","flightIndex":1,"flightStartTime":1634046664026,"groundOrSky":0,"height":0.0,"homeLatitude":0.0,"homeLongitude":0.0,"isPushTimeOut":false,"lastDronePushUpdateTime":1634047310782,"lastDronePushUpdateTimeStr":"2021-10-12 17:01:50","lastServerUpdateTime":0,"latitude":0.0,"license":"\u0000","longitude":0.0,"personLatitude":0.0,"personLocUpdateTime":0,"personLongitude":0.0,"pitch":0,"plan":"Cannot exceed 90 characters","productType":"Mavic Pro","rawData":[16,2,-45,2,7,45,48,56,82,68,70,55,67,80,48,49,48,50,57,90,0,0,0,0,0,0,0,0,0,0,-17,-1,0,0,0,0,0,0,-1,-1,9,60,0,0,0,0,0,0,0,0,0,0,0,0,0,0,0,0,0,0,0,0,0,0,0,0,16,19,49,49,50,48,50,50,55,50,57,54,50,56,53,56,55,54,50,50,52,0],"rcID":0,"roll":0,"showLine":false,"sn":"08RDF7CP01029Z","srcType":3,"updateCount":534,"uuid":"1120227296285876224","xSpeed":0.0,"ySpeed":0.0,"yaw":333,"zSpeed":-0.01}
{"_id":1,"absoluteHeight":65519.0,"addTime":1634046664026,"areoscopeUUID":"f62456fb-bbf7-43c5-8139-890ccd8a7ca7","flightIndex":1,"flightStartTime":1634046664026,"groundOrSky":0,"height":0.0,"homeLatitude":0.0,"homeLongitude":0.0,"isPushTimeOut":false,"lastDronePushUpdateTime":1634047312813,"lastDronePushUpdateTimeStr":"2021-10-12 17:01:52","lastServerUpdateTime":0,"latitude":0.0,"license":"\u0000","longitude":0.0,"personLatitude":0.0,"personLocUpdateTime":0,"personLongitude":0.0,"pitch":0,"plan":"Cannot exceed 90 characters","productType":"Mavic Pro","rawData":[16,2,-43,2,7,45,48,56,82,68,70,55,67,80,48,49,48,50,57,90,0,0,0,0,0,0,0,0,0,0,-17,-1,0,0,0,0,0,0,0,0,9,60,0,0,0,0,0,0,0,0,0,0,0,0,0,0,0,0,0,0,0,0,0,0,0,0,16,19,49,49,50,48,50,50,55,50,57,54,50,56,53,56,55,54,50,50,52,0],"rcID":0,"roll":0,"showLine":false,"sn":"08RDF7CP01029Z","srcType":3,"updateCount":535,"uuid":"1120227296285876224","xSpeed":0.0,"ySpeed":0.0,"yaw":333,"zSpeed":0.0}
{"_id":1,"absoluteHeight":65519.0,"addTime":1634046664026,"areoscopeUUID":"f62456fb-bbf7-43c5-8139-890ccd8a7ca7","flightIndex":1,"flightStartTime":1634046664026,"groundOrSky":0,"height":0.0,"homeLatitude":0.0,"homeLongitude":0.0,"isPushTimeOut":false,"lastDronePushUpdateTime":1634047314625,"lastDronePushUpdateTimeStr":"2021-10-12 17:01:54","lastServerUpdateTime":0,"latitude":0.0,"license":"\u0000","longitude":0.0,"personLatitude":0.0,"personLocUpdateTime":0,"personLongitude":0.0,"pitch":0,"plan":"Cannot exceed 90 characters","productType":"Mavic Pro","rawData":[16,2,-41,2,7,45,48,56,82,68,70,55,67,80,48,49,48,50,57,90,0,0,0,0,0,0,0,0,0,0,-17,-1,0,0,0,0,0,0,1,0,12,60,0,0,0,0,0,0,0,0,0,0,0,0,0,0,0,0,0,0,0,0,0,0,0,0,16,19,49,49,50,48,50,50,55,50,57,54,50,56,53,56,55,54,50,50,52,0],"rcID":0,"roll":0,"showLine":false,"sn":"08RDF7CP01029Z","srcType":3,"updateCount":536,"uuid":"1120227296285876224","xSpeed":0.0,"ySpeed":0.0,"yaw":333,"zSpeed":0.01}
{"_id":1,"absoluteHeight":65519.0,"addTime":1634046664026,"areoscopeUUID":"f62456fb-bbf7-43c5-8139-890ccd8a7ca7","flightIndex":1,"flightStartTime":1634046664026,"groundOrSky":0,"height":0.0,"homeLatitude":0.0,"homeLongitude":0.0,"isPushTimeOut":false,"lastDronePushUpdateTime":1634047316095,"lastDronePushUpdateTimeStr":"2021-10-12 17:01:56","lastServerUpdateTime":0,"latitude":0.0,"license":"\u0000","longitude":0.0,"personLatitude":0.0,"personLocUpdateTime":0,"personLongitude":0.0,"pitch":0,"plan":"Cannot exceed 90 characters","productType":"Mavic Pro","rawData":[16,2,-40,2,7,45,48,56,82,68,70,55,67,80,48,49,48,50,57,90,0,0,0,0,0,0,0,0,0,0,-17,-1,0,0,0,0,0,0,0,0,12,60,0,0,0,0,0,0,0,0,0,0,0,0,0,0,0,0,0,0,0,0,0,0,0,0,16,19,49,49,50,48,50,50,55,50,57,54,50,56,53,56,55,54,50,50,52,0],"rcID":0,"roll":0,"showLine":false,"sn":"08RDF7CP01029Z","srcType":3,"updateCount":537,"uuid":"1120227296285876224","xSpeed":0.0,"ySpeed":0.0,"yaw":333,"zSpeed":0.0}
{"_id":1,"absoluteHeight":65519.0,"addTime":1634046664026,"areoscopeUUID":"f62456fb-bbf7-43c5-8139-890ccd8a7ca7","flightIndex":1,"flightStartTime":1634046664026,"groundOrSky":0,"height":0.0,"homeLatitude":0.0,"homeLongitude":0.0,"isPushTimeOut":false,"lastDronePushUpdateTime":1634047316698,"lastDronePushUpdateTimeStr":"2021-10-12 17:01:56","lastServerUpdateTime":0,"latitude":0.0,"license":"\u0000","longitude":0.0,"personLatitude":0.0,"personLocUpdateTime":0,"personLongitude":0.0,"pitch":0,"plan":"Cannot exceed 90 characters","productType":"Mavic Pro","rawData":[17,48,56,82,68,70,55,67,80,48,49,48,50,57,90,0,0,-52,-86,2,31,0,64,35,64,67,97,110,110,111,116,32,101,120,99,101,101,100,32,57,48,32,99,104,97,114,97,99,116,101,114,115,0,0,0,0,0,0,0,0,0,0,0,0,0,0,0,0,0,0,0,0,0,0,0,0,0,0,0,0,0,0,0,0,0,0,0,0,0,0,0,0,0,0,0,0,0,0,0,0,0,0,0,0,0,0,0,0,0,0,0,0,0,0,0,0,0,0,0,0,0,0,0,0,0,0,0,0,0,0,0,0,0,0,0,0,0,0,0,0,0],"rcID":0,"roll":0,"showLine":false,"sn":"08RDF7CP01029Z","srcType":3,"updateCount":538,"uuid":"1120227296285876224","xSpeed":0.0,"ySpeed":0.0,"yaw":333,"zSpeed":0.0}
{"_id":2,"absoluteHeight":65519.0,"addTime":1634047317099,"areoscopeUUID":"09b2b698-128f-4a37-b6d5-4ecc6a254e6b","flightIndex":1,"flightStartTime":1634047317099,"groundOrSky":0,"height":0.0,"homeLatitude":0.0,"homeLongitude":0.0,"isPushTimeOut":false,"lastDronePushUpdateTime":1634047317096,"lastDronePushUpdateTimeStr":"2021-10-12 17:01:57","lastServerUpdateTime":0,"latitude":0.0,"longitude":0.0,"personLatitude":0.0,"personLocUpdateTime":0,"personLongitude":0.0,"pitch":0,"productType":"Mavic 2 Enterprise","rawData":[16,2,7,0,3,8,50,57,56,67,71,66,75,82,48,65,48,65,52,56,0,0,0,0,0,0,0,0,0,0,-17,-1,0,0,0,0,0,0,-7,-1,-55,22,0,0,0,0,0,0,0,0,0,0,0,0,0,0,0,0,0,0,0,0,0,0,0,0,51,0,0,0,0,0,0,0,0,0,0,0,0,0,0,0,0,0,0,0,0,0],"rcID":0,"roll":0,"showLine":false,"sn":"298CGBKR0A0A48","srcType":3,"updateCount":1,"uuid":"","xSpeed":0.0,"ySpeed":0.0,"yaw":238,"zSpeed":-0.07}
{"_id":2,"absoluteHeight":65519.0,"addTime":1634047317099,"areoscopeUUID":"09b2b698-128f-4a37-b6d5-4ecc6a254e6b","flightIndex":1,"flightStartTime":1634047317099,"groundOrSky":0,"height":0.0,"homeLatitude":0.0,"homeLongitude":0.0,"isPushTimeOut":false,"lastDronePushUpdateTime":1634047317722,"lastDronePushUpdateTimeStr":"2021-10-12 17:01:57","lastServerUpdateTime":0,"latitude":0.0,"longitude":0.0,"personLatitude":0.0,"personLocUpdateTime":0,"personLongitude":0.0,"pitch":0,"productType":"Mavic 2 Enterprise","rawData":[16,2,7,0,3,8,50,57,56,67,71,66,75,82,48,65,48,65,52,56,0,0,0,0,0,0,0,0,0,0,-17,-1,0,0,0,0,0,0,-7,-1,-55,22,0,0,0,0,0,0,0,0,0,0,0,0,0,0,0,0,0,0,0,0,0,0,0,0,51,0,0,0,0,0,0,0,0,0,0,0,0,0,0,0,0,0,0,0,0,0],"rcID":0,"roll":0,"showLine":false,"sn":"298CGBKR0A0A48","srcType":3,"updateCount":2,"uuid":"","xSpeed":0.0,"ySpeed":0.0,"yaw":238,"zSpeed":-0.07}
{"_id":1,"absoluteHeight":65519.0,"addTime":1634046664026,"areoscopeUUID":"f62456fb-bbf7-43c5-8139-890ccd8a7ca7","flightIndex":1,"flightStartTime":1634046664026,"groundOrSky":0,"height":0.0,"homeLatitude":0.0,"homeLongitude":0.0,"isPushTimeOut":false,"lastDronePushUpdateTime":1634047318481,"lastDronePushUpdateTimeStr":"2021-10-12 17:01:58","lastServerUpdateTime":0,"latitude":0.0,"license":"\u0000","longitude":0.0,"personLatitude":0.0,"personLocUpdateTime":0,"personLongitude":0.0,"pitch":0,"plan":"Cannot exceed 90 characters","productType":"Mavic Pro","rawData":[16,2,-37,2,7,45,48,56,82,68,70,55,67,80,48,49,48,50,57,90,0,0,0,0,0,0,0,0,0,0,-17,-1,0,0,0,0,0,0,0,0,10,60,0,0,0,0,0,0,0,0,0,0,0,0,0,0,0,0,0,0,0,0,0,0,0,0,16,19,49,49,50,48,50,50,55,50,57,54,50,56,53,56,55,54,50,50,52,0],"rcID":0,"roll":0,"showLine":false,"sn":"08RDF7CP01029Z","srcType":3,"updateCount":539,"uuid":"1120227296285876224","xSpeed":0.0,"ySpeed":0.0,"yaw":333,"zSpeed":0.0}
{"_id":1,"absoluteHeight":65519.0,"addTime":1634046664026,"areoscopeUUID":"f62456fb-bbf7-43c5-8139-890ccd8a7ca7","flightIndex":1,"flightStartTime":1634046664026,"groundOrSky":0,"height":0.0,"homeLatitude":0.0,"homeLongitude":0.0,"isPushTimeOut":false,"lastDronePushUpdateTime":1634047319098,"lastDronePushUpdateTimeStr":"2021-10-12 17:01:59","lastServerUpdateTime":0,"latitude":0.0,"license":"\u0000","longitude":0.0,"personLatitude":0.0,"personLocUpdateTime":0,"personLongitude":0.0,"pitch":0,"plan":"Cannot exceed 90 characters","productType":"Mavic Pro","rawData":[16,2,-36,2,7,45,48,56,82,68,70,55,67,80,48,49,48,50,57,90,0,0,0,0,0,0,0,0,0,0,-17,-1,0,0,0,0,0,0,0,0,12,60,0,0,0,0,0,0,0,0,0,0,0,0,0,0,0,0,0,0,0,0,0,0,0,0,16,19,49,49,50,48,50,50,55,50,57,54,50,56,53,56,55,54,50,50,52,0],"rcID":0,"roll":0,"showLine":false,"sn":"08RDF7CP01029Z","srcType":3,"updateCount":540,"uuid":"1120227296285876224","xSpeed":0.0,"ySpeed":0.0,"yaw":333,"zSpeed":0.0}
{"_id":2,"absoluteHeight":65519.0,"addTime":1634047317099,"areoscopeUUID":"09b2b698-128f-4a37-b6d5-4ecc6a254e6b","flightIndex":1,"flightStartTime":1634047317099,"groundOrSky":0,"height":0.0,"homeLatitude":0.0,"homeLongitude":0.0,"isPushTimeOut":false,"lastDronePushUpdateTime":1634047319805,"lastDronePushUpdateTimeStr":"2021-10-12 17:01:59","lastServerUpdateTime":0,"latitude":0.0,"longitude":0.0,"personLatitude":0.0,"personLocUpdateTime":0,"personLongitude":0.0,"pitch":0,"productType":"Mavic 2 Enterprise","rawData":[16,2,9,0,3,10,50,57,56,67,71,66,75,82,48,65,48,65,52,56,0,0,0,0,0,0,0,0,0,0,-17,-1,0,0,-1,-1,-1,-1,-3,-1,-57,22,0,0,0,0,0,0,0,0,0,0,0,0,0,0,0,0,0,0,0,0,0,0,0,0,51,0,0,0,0,0,0,0,0,0,0,0,0,0,0,0,0,0,0,0,0,0],"rcID":0,"roll":0,"showLine":false,"sn":"298CGBKR0A0A48","srcType":3,"updateCount":3,"uuid":"","xSpeed":-0.01,"ySpeed":-0.01,"yaw":238,"zSpeed":-0.03}
{"_id":2,"absoluteHeight":65519.0,"addTime":1634047317099,"areoscopeUUID":"09b2b698-128f-4a37-b6d5-4ecc6a254e6b","flightIndex":1,"flightStartTime":1634047317099,"groundOrSky":0,"height":0.0,"homeLatitude":0.0,"homeLongitude":0.0,"isPushTimeOut":false,"lastDronePushUpdateTime":1634047320422,"lastDronePushUpdateTimeStr":"2021-10-12 17:02:00","lastServerUpdateTime":0,"latitude":0.0,"longitude":0.0,"personLatitude":0.0,"personLocUpdateTime":0,"personLongitude":0.0,"pitch":0,"productType":"Mavic 2 Enterprise","rawData":[16,2,10,0,3,15,50,57,56,67,71,66,75,82,48,65,48,65,52,56,0,0,0,0,0,0,0,0,0,0,-17,-1,0,0,-1,-1,-1,-1,-3,-1,-59,22,0,0,0,0,0,0,0,0,0,0,0,0,0,0,0,0,0,0,0,0,0,0,0,0,51,0,0,0,0,0,0,0,0,0,0,0,0,0,0,0,0,0,0,0,0,0],"rcID":0,"roll":0,"showLine":false,"sn":"298CGBKR0A0A48","srcType":3,"updateCount":4,"uuid":"","xSpeed":-0.01,"ySpeed":-0.01,"yaw":238,"zSpeed":-0.03}
{"_id":2,"absoluteHeight":65519.0,"addTime":1634047317099,"areoscopeUUID":"09b2b698-128f-4a37-b6d5-4ecc6a254e6b","flightIndex":1,"flightStartTime":1634047317099,"groundOrSky":0,"height":0.0,"homeLatitude":0.0,"homeLongitude":0.0,"isPushTimeOut":false,"lastDronePushUpdateTime":1634047320995,"lastDronePushUpdateTimeStr":"2021-10-12 17:02:00","lastServerUpdateTime":0,"latitude":0.0,"longitude":0.0,"personLatitude":0.0,"personLocUpdateTime":0,"personLongitude":0.0,"pitch":0,"productType":"Mavic 2 Enterprise","rawData":[16,2,11,0,3,15,50,57,56,67,71,66,75,82,48,65,48,65,52,56,0,0,0,0,0,0,0,0,0,0,-17,-1,0,0,-1,-1,-1,-1,-2,-1,-59,22,0,0,0,0,0,0,0,0,0,0,0,0,0,0,0,0,0,0,0,0,0,0,0,0,51,0,0,0,0,0,0,0,0,0,0,0,0,0,0,0,0,0,0,0,0,0],"rcID":0,"roll":0,"showLine":false,"sn":"298CGBKR0A0A48","srcType":3,"updateCount":5,"uuid":"","xSpeed":-0.01,"ySpeed":-0.01,"yaw":238,"zSpeed":-0.02}
{"_id":1,"absoluteHeight":65519.0,"addTime":1634046664026,"areoscopeUUID":"f62456fb-bbf7-43c5-8139-890ccd8a7ca7","flightIndex":1,"flightStartTime":1634046664026,"groundOrSky":0,"height":0.0,"homeLatitude":0.0,"homeLongitude":0.0,"isPushTimeOut":false,"lastDronePushUpdateTime":1634047321161,"lastDronePushUpdateTimeStr":"2021-10-12 17:02:01","lastServerUpdateTime":0,"latitude":0.0,"license":"\u0000","longitude":0.0,"personLatitude":0.0,"personLocUpdateTime":0,"personLongitude":0.0,"pitch":0,"plan":"Cannot exceed 90 characters","productType":"Mavic Pro","rawData":[16,2,-34,2,7,45,48,56,82,68,70,55,67,80,48,49,48,50,57,90,0,0,0,0,0,0,0,0,0,0,-17,-1,0,0,0,0,0,0,0,0,12,60,0,0,0,0,0,0,0,0,0,0,0,0,0,0,0,0,0,0,0,0,0,0,0,0,16,19,49,49,50,48,50,50,55,50,57,54,50,56,53,56,55,54,50,50,52,0],"rcID":0,"roll":0,"showLine":false,"sn":"08RDF7CP01029Z","srcType":3,"updateCount":541,"uuid":"1120227296285876224","xSpeed":0.0,"ySpeed":0.0,"yaw":333,"zSpeed":0.0}
{"_id":2,"absoluteHeight":65519.0,"addTime":1634047317099,"areoscopeUUID":"09b2b698-128f-4a37-b6d5-4ecc6a254e6b","flightIndex":1,"flightStartTime":1634047317099,"groundOrSky":0,"height":0.0,"homeLatitude":0.0,"homeLongitude":0.0,"isPushTimeOut":false,"lastDronePushUpdateTime":1634047321548,"lastDronePushUpdateTimeStr":"2021-10-12 17:02:01","lastServerUpdateTime":0,"latitude":0.0,"longitude":0.0,"personLatitude":0.0,"personLocUpdateTime":0,"personLongitude":0.0,"pitch":0,"productType":"Mavic 2 Enterprise","rawData":[16,2,11,0,3,15,50,57,56,67,71,66,75,82,48,65,48,65,52,56,0,0,0,0,0,0,0,0,0,0,-17,-1,0,0,-1,-1,-1,-1,-2,-1,-59,22,0,0,0,0,0,0,0,0,0,0,0,0,0,0,0,0,0,0,0,0,0,0,0,0,51,0,0,0,0,0,0,0,0,0,0,0,0,0,0,0,0,0,0,0,0,0],"rcID":0,"roll":0,"showLine":false,"sn":"298CGBKR0A0A48","srcType":3,"updateCount":6,"uuid":"","xSpeed":-0.01,"ySpeed":-0.01,"yaw":238,"zSpeed":-0.02}
{"_id":1,"absoluteHeight":65519.0,"addTime":1634046664026,"areoscopeUUID":"f62456fb-bbf7-43c5-8139-890ccd8a7ca7","flightIndex":1,"flightStartTime":1634046664026,"groundOrSky":0,"height":0.0,"homeLatitude":0.0,"homeLongitude":0.0,"isPushTimeOut":false,"lastDronePushUpdateTime":1634047323082,"lastDronePushUpdateTimeStr":"2021-10-12 17:02:03","lastServerUpdateTime":0,"latitude":0.0,"license":"\u0000","longitude":0.0,"personLatitude":0.0,"personLocUpdateTime":0,"personLongitude":0.0,"pitch":0,"plan":"Cannot exceed 90 characters","productType":"Mavic Pro","rawData":[16,2,-33,2,7,45,48,56,82,68,70,55,67,80,48,49,48,50,57,90,0,0,0,0,0,0,0,0,0,0,-17,-1,0,0,0,0,0,0,0,0,11,60,0,0,0,0,0,0,0,0,0,0,0,0,0,0,0,0,0,0,0,0,0,0,0,0,16,19,49,49,50,48,50,50,55,50,57,54,50,56,53,56,55,54,50,50,52,0],"rcID":0,"roll":0,"showLine":false,"sn":"08RDF7CP01029Z","srcType":3,"updateCount":542,"uuid":"1120227296285876224","xSpeed":0.0,"ySpeed":0.0,"yaw":333,"zSpeed":0.0}
{"_id":2,"absoluteHeight":65519.0,"addTime":1634047317099,"areoscopeUUID":"09b2b698-128f-4a37-b6d5-4ecc6a254e6b","flightIndex":1,"flightStartTime":1634047317099,"groundOrSky":0,"height":0.0,"homeLatitude":0.0,"homeLongitude":0.0,"isPushTimeOut":false,"lastDronePushUpdateTime":1634047323473,"lastDronePushUpdateTimeStr":"2021-10-12 17:02:03","lastServerUpdateTime":0,"latitude":0.0,"longitude":0.0,"personLatitude":0.0,"personLocUpdateTime":0,"personLongitude":0.0,"pitch":0,"productType":"Mavic 2 Enterprise","rawData":[16,2,13,0,3,15,50,57,56,67,71,66,75,82,48,65,48,65,52,56,0,0,0,0,0,0,0,0,0,0,-17,-1,0,0,0,0,-1,-1,-3,-1,-58,22,0,0,0,0,0,0,0,0,0,0,0,0,0,0,0,0,0,0,0,0,0,0,0,0,51,0,0,0,0,0,0,0,0,0,0,0,0,0,0,0,0,0,0,0,0,0],"rcID":0,"roll":0,"showLine":false,"sn":"298CGBKR0A0A48","srcType":3,"updateCount":7,"uuid":"","xSpeed":0.0,"ySpeed":-0.01,"yaw":238,"zSpeed":-0.03}
{"_id":1,"absoluteHeight":65519.0,"addTime":1634046664026,"areoscopeUUID":"f62456fb-bbf7-43c5-8139-890ccd8a7ca7","flightIndex":1,"flightStartTime":1634046664026,"groundOrSky":0,"height":0.0,"homeLatitude":0.0,"homeLongitude":0.0,"isPushTimeOut":false,"lastDronePushUpdateTime":1634047323614,"lastDronePushUpdateTimeStr":"2021-10-12 17:02:03","lastServerUpdateTime":0,"latitude":0.0,"license":"\u0000","longitude":0.0,"personLatitude":0.0,"personLocUpdateTime":0,"personLongitude":0.0,"pitch":0,"plan":"Cannot exceed 90 characters","productType":"Mavic Pro","rawData":[16,2,-32,2,7,47,48,56,82,68,70,55,67,80,48,49,48,50,57,90,0,0,0,0,0,0,0,0,0,0,-17,-1,0,0,0,0,0,0,0,0,10,60,0,0,0,0,0,0,0,0,0,0,0,0,0,0,0,0,0,0,0,0,0,0,0,0,16,19,49,49,50,48,50,50,55,50,57,54,50,56,53,56,55,54,50,50,52,0],"rcID":0,"roll":0,"showLine":false,"sn":"08RDF7CP01029Z","srcType":3,"updateCount":543,"uuid":"1120227296285876224","xSpeed":0.0,"ySpeed":0.0,"yaw":333,"zSpeed":0.0}
{"_id":2,"absoluteHeight":65519.0,"addTime":1634047317099,"areoscopeUUID":"09b2b698-128f-4a37-b6d5-4ecc6a254e6b","flightIndex":1,"flightStartTime":1634047317099,"groundOrSky":0,"height":0.0,"homeLatitude":0.0,"homeLongitude":0.0,"isPushTimeOut":false,"lastDronePushUpdateTime":1634047324065,"lastDronePushUpdateTimeStr":"2021-10-12 17:02:04","lastServerUpdateTime":0,"latitude":0.0,"license":"","longitude":0.0,"personLatitude":0.0,"personLocUpdateTime":0,"personLongitude":0.0,"pitch":0,"plan":"","productType":"Mavic 2 Enterprise","rawData":[17,50,57,56,67,71,66,75,82,48,65,48,65,52,56,0,0,-52,-86,2,0,0,0,0,0,0,0,0,0,0,0,0,0,0,0,0,0,0,0,0,0,0,0,0,0,0,0,0,0,0,0,0,0,0,0,0,0,0,0,0,0,0,0,0,0,0,0,0,0,0,0,0,0,0,0,0,0,0,0,0,0,0,0,0,0,0,0,0,0,0,0,0,0,0,0,0,0,0,0,0,0,0,0,0,0,0,0,0,0,0,0,0,0,0,0,0,0,0,0,0,0,0,0,0,0,0,0,0,0,0,0,0,0,0,0,0,0,0,0,0,0],"rcID":0,"roll":0,"showLine":false,"sn":"298CGBKR0A0A48","srcType":3,"updateCount":8,"uuid":"","xSpeed":0.0,"ySpeed":-0.01,"yaw":238,"zSpeed":-0.03}
{"_id":1,"absoluteHeight":65519.0,"addTime":1634046664026,"areoscopeUUID":"f62456fb-bbf7-43c5-8139-890ccd8a7ca7","flightIndex":1,"flightStartTime":1634046664026,"groundOrSky":0,"height":0.0,"homeLatitude":0.0,"homeLongitude":0.0,"isPushTimeOut":false,"lastDronePushUpdateTime":1634047324208,"lastDronePushUpdateTimeStr":"2021-10-12 17:02:04","lastServerUpdateTime":0,"latitude":0.0,"license":"\u0000","longitude":0.0,"personLatitude":0.0,"personLocUpdateTime":0,"personLongitude":0.0,"pitch":0,"plan":"Cannot exceed 90 characters","productType":"Mavic Pro","rawData":[16,2,-31,2,7,47,48,56,82,68,70,55,67,80,48,49,48,50,57,90,0,0,0,0,0,0,0,0,0,0,-17,-1,0,0,0,0,0,0,0,0,11,60,0,0,0,0,0,0,0,0,0,0,0,0,0,0,0,0,0,0,0,0,0,0,0,0,16,19,49,49,50,48,50,50,55,50,57,54,50,56,53,56,55,54,50,50,52,0],"rcID":0,"roll":0,"showLine":false,"sn":"08RDF7CP01029Z","srcType":3,"updateCount":544,"uuid":"1120227296285876224","xSpeed":0.0,"ySpeed":0.0,"yaw":333,"zSpeed":0.0}
{"_id":1,"absoluteHeight":65519.0,"addTime":1634046664026,"areoscopeUUID":"f62456fb-bbf7-43c5-8139-890ccd8a7ca7","flightIndex":1,"flightStartTime":1634046664026,"groundOrSky":0,"height":0.0,"homeLatitude":0.0,"homeLongitude":0.0,"isPushTimeOut":false,"lastDronePushUpdateTime":1634047325086,"lastDronePushUpdateTimeStr":"2021-10-12 17:02:05","lastServerUpdateTime":0,"latitude":0.0,"license":"\u0000","longitude":0.0,"personLatitude":0.0,"personLocUpdateTime":0,"personLongitude":0.0,"pitch":0,"plan":"Cannot exceed 90 characters","productType":"Mavic Pro","rawData":[16,2,-31,2,7,47,48,56,82,68,70,55,67,80,48,49,48,50,57,90,0,0,0,0,0,0,0,0,0,0,-17,-1,0,0,0,0,0,0,0,0,11,60,0,0,0,0,0,0,0,0,0,0,0,0,0,0,0,0,0,0,0,0,0,0,0,0,16,19,49,49,50,48,50,50,55,50,57,54,50,56,53,56,55,54,50,50,52,0],"rcID":0,"roll":0,"showLine":false,"sn":"08RDF7CP01029Z","srcType":3,"updateCount":545,"uuid":"1120227296285876224","xSpeed":0.0,"ySpeed":0.0,"yaw":333,"zSpeed":0.0}
{"_id":2,"absoluteHeight":65519.0,"addTime":1634047317099,"areoscopeUUID":"09b2b698-128f-4a37-b6d5-4ecc6a254e6b","flightIndex":1,"flightStartTime":1634047317099,"groundOrSky":0,"height":0.0,"homeLatitude":0.0,"homeLongitude":0.0,"isPushTimeOut":false,"lastDronePushUpdateTime":1634047325518,"lastDronePushUpdateTimeStr":"2021-10-12 17:02:05","lastServerUpdateTime":0,"latitude":0.0,"license":"","longitude":0.0,"personLatitude":0.0,"personLocUpdateTime":0,"personLongitude":0.0,"pitch":0,"plan":"","productType":"Mavic 2 Enterprise","rawData":[16,2,15,0,3,15,50,57,56,67,71,66,75,82,48,65,48,65,52,56,0,0,0,0,0,0,0,0,0,0,-17,-1,0,0,0,0,0,0,0,0,-108,22,0,0,0,0,0,0,0,0,0,0,0,0,0,0,0,0,0,0,0,0,0,0,0,0,51,0,0,0,0,0,0,0,0,0,0,0,0,0,0,0,0,0,0,0,0,0],"rcID":0,"roll":0,"showLine":false,"sn":"298CGBKR0A0A48","srcType":3,"updateCount":9,"uuid":"","xSpeed":0.0,"ySpeed":0.0,"yaw":237,"zSpeed":0.0}
{"_id":2,"absoluteHeight":65519.0,"addTime":1634047317099,"areoscopeUUID":"09b2b698-128f-4a37-b6d5-4ecc6a254e6b","flightIndex":1,"flightStartTime":1634047317099,"groundOrSky":0,"height":0.0,"homeLatitude":0.0,"homeLongitude":0.0,"isPushTimeOut":false,"lastDronePushUpdateTime":1634047326122,"lastDronePushUpdateTimeStr":"2021-10-12 17:02:06","lastServerUpdateTime":0,"latitude":0.0,"license":"","longitude":0.0,"personLatitude":0.0,"personLocUpdateTime":0,"personLongitude":0.0,"pitch":0,"plan":"","productType":"Mavic 2 Enterprise","rawData":[16,2,16,0,3,15,50,57,56,67,71,66,75,82,48,65,48,65,52,56,0,0,0,0,0,0,0,0,0,0,-17,-1,0,0,0,0,0,0,0,0,-72,22,0,0,0,0,0,0,0,0,0,0,0,0,0,0,0,0,0,0,0,0,0,0,0,0,51,0,0,0,0,0,0,0,0,0,0,0,0,0,0,0,0,0,0,0,0,0],"rcID":0,"roll":0,"showLine":false,"sn":"298CGBKR0A0A48","srcType":3,"updateCount":10,"uuid":"","xSpeed":0.0,"ySpeed":0.0,"yaw":238,"zSpeed":0.0}
{"_id":1,"absoluteHeight":65519.0,"addTime":1634046664026,"areoscopeUUID":"f62456fb-bbf7-43c5-8139-890ccd8a7ca7","flightIndex":1,"flightStartTime":1634046664026,"groundOrSky":0,"height":0.0,"homeLatitude":0.0,"homeLongitude":0.0,"isPushTimeOut":false,"lastDronePushUpdateTime":1634047326255,"lastDronePushUpdateTimeStr":"2021-10-12 17:02:06","lastServerUpdateTime":0,"latitude":0.0,"license":"\u0000","longitude":0.0,"personLatitude":0.0,"personLocUpdateTime":0,"personLongitude":0.0,"pitch":0,"plan":"Cannot exceed 90 characters","productType":"Mavic Pro","rawData":[16,2,-29,2,7,47,48,56,82,68,70,55,67,80,48,49,48,50,57,90,0,0,0,0,0,0,0,0,0,0,-17,-1,0,0,0,0,0,0,0,0,13,60,0,0,0,0,0,0,0,0,0,0,0,0,0,0,0,0,0,0,0,0,0,0,0,0,16,19,49,49,50,48,50,50,55,50,57,54,50,56,53,56,55,54,50,50,52,0],"rcID":0,"roll":0,"showLine":false,"sn":"08RDF7CP01029Z","srcType":3,"updateCount":546,"uuid":"1120227296285876224","xSpeed":0.0,"ySpeed":0.0,"yaw":333,"zSpeed":0.0}
{"_id":1,"absoluteHeight":65519.0,"addTime":1634046664026,"areoscopeUUID":"f62456fb-bbf7-43c5-8139-890ccd8a7ca7","flightIndex":1,"flightStartTime":1634046664026,"groundOrSky":0,"height":0.0,"homeLatitude":0.0,"homeLongitude":0.0,"isPushTimeOut":false,"lastDronePushUpdateTime":1634047326864,"lastDronePushUpdateTimeStr":"2021-10-12 17:02:06","lastServerUpdateTime":0,"latitude":0.0,"license":"\u0000","longitude":0.0,"personLatitude":0.0,"personLocUpdateTime":0,"personLongitude":0.0,"pitch":0,"plan":"Cannot exceed 90 characters","productType":"Mavic Pro","rawData":[17,48,56,82,68,70,55,67,80,48,49,48,50,57,90,0,0,-52,-86,2,31,0,64,35,64,67,97,110,110,111,116,32,101,120,99,101,101,100,32,57,48,32,99,104,97,114,97,99,116,101,114,115,0,0,0,0,0,0,0,0,0,0,0,0,0,0,0,0,0,0,0,0,0,0,0,0,0,0,0,0,0,0,0,0,0,0,0,0,0,0,0,0,0,0,0,0,0,0,0,0,0,0,0,0,0,0,0,0,0,0,0,0,0,0,0,0,0,0,0,0,0,0,0,0,0,0,0,0,0,0,0,0,0,0,0,0,0,0,0,0,0],"rcID":0,"roll":0,"showLine":false,"sn":"08RDF7CP01029Z","srcType":3,"updateCount":547,"uuid":"1120227296285876224","xSpeed":0.0,"ySpeed":0.0,"yaw":333,"zSpeed":0.0}
{"_id":2,"absoluteHeight":65519.0,"addTime":1634047317099,"areoscopeUUID":"09b2b698-128f-4a37-b6d5-4ecc6a254e6b","flightIndex":1,"flightStartTime":1634047317099,"groundOrSky":0,"height":0.0,"homeLatitude":0.0,"homeLongitude":0.0,"isPushTimeOut":false,"lastDronePushUpdateTime":1634047327286,"lastDronePushUpdateTimeStr":"2021-10-12 17:02:07","lastServerUpdateTime":0,"latitude":0.0,"license":"","longitude":0.0,"personLatitude":0.0,"personLocUpdateTime":0,"personLongitude":0.0,"pitch":0,"plan":"","productType":"Mavic 2 Enterprise","rawData":[16,2,17,0,3,15,50,57,56,67,71,66,75,82,48,65,48,65,52,56,0,0,0,0,0,0,0,0,0,0,-17,-1,0,0,0,0,0,0,0,0,-105,22,0,0,0,0,0,0,0,0,0,0,0,0,0,0,0,0,0,0,0,0,0,0,0,0,51,0,0,0,0,0,0,0,0,0,0,0,0,0,0,0,0,0,0,0,0,0],"rcID":0,"roll":0,"showLine":false,"sn":"298CGBKR0A0A48","srcType":3,"updateCount":11,"uuid":"","xSpeed":0.0,"ySpeed":0.0,"yaw":237,"zSpeed":0.0}
{"_id":1,"absoluteHeight":65519.0,"addTime":1634046664026,"areoscopeUUID":"f62456fb-bbf7-43c5-8139-890ccd8a7ca7","flightIndex":1,"flightStartTime":1634046664026,"groundOrSky":0,"height":0.0,"homeLatitude":0.0,"homeLongitude":0.0,"isPushTimeOut":false,"lastDronePushUpdateTime":1634047327445,"lastDronePushUpdateTimeStr":"2021-10-12 17:02:07","lastServerUpdateTime":0,"latitude":0.0,"license":"\u0000","longitude":0.0,"personLatitude":0.0,"personLocUpdateTime":0,"personLongitude":0.0,"pitch":0,"plan":"Cannot exceed 90 characters","productType":"Mavic Pro","rawData":[16,2,-28,2,7,47,48,56,82,68,70,55,67,80,48,49,48,50,57,90,0,0,0,0,0,0,0,0,0,0,-17,-1,0,0,0,0,0,0,1,0,12,60,0,0,0,0,0,0,0,0,0,0,0,0,0,0,0,0,0,0,0,0,0,0,0,0,16,19,49,49,50,48,50,50,55,50,57,54,50,56,53,56,55,54,50,50,52,0],"rcID":0,"roll":0,"showLine":false,"sn":"08RDF7CP01029Z","srcType":3,"updateCount":548,"uuid":"1120227296285876224","xSpeed":0.0,"ySpeed":0.0,"yaw":333,"zSpeed":0.01}
{"_id":1,"absoluteHeight":65519.0,"addTime":1634046664026,"areoscopeUUID":"f62456fb-bbf7-43c5-8139-890ccd8a7ca7","flightIndex":1,"flightStartTime":1634046664026,"groundOrSky":0,"height":0.0,"homeLatitude":0.0,"homeLongitude":0.0,"isPushTimeOut":false,"lastDronePushUpdateTime":1634047329038,"lastDronePushUpdateTimeStr":"2021-10-12 17:02:09","lastServerUpdateTime":0,"latitude":0.0,"license":"\u0000","longitude":0.0,"personLatitude":0.0,"personLocUpdateTime":0,"personLongitude":0.0,"pitch":0,"plan":"Cannot exceed 90 characters","productType":"Mavic Pro","rawData":[16,2,-27,2,7,47,48,56,82,68,70,55,67,80,48,49,48,50,57,90,0,0,0,0,0,0,0,0,0,0,-17,-1,0,0,0,0,0,0,0,0,13,60,0,0,0,0,0,0,0,0,0,0,0,0,0,0,0,0,0,0,0,0,0,0,0,0,16,19,49,49,50,48,50,50,55,50,57,54,50,56,53,56,55,54,50,50,52,0],"rcID":0,"roll":0,"showLine":false,"sn":"08RDF7CP01029Z","srcType":3,"updateCount":549,"uuid":"1120227296285876224","xSpeed":0.0,"ySpeed":0.0,"yaw":333,"zSpeed":0.0}
{"_id":1,"absoluteHeight":65519.0,"addTime":1634046664026,"areoscopeUUID":"f62456fb-bbf7-43c5-8139-890ccd8a7ca7","flightIndex":1,"flightStartTime":1634046664026,"groundOrSky":0,"height":0.0,"homeLatitude":0.0,"homeLongitude":0.0,"isPushTimeOut":false,"lastDronePushUpdateTime":1634047329979,"lastDronePushUpdateTimeStr":"2021-10-12 17:02:09","lastServerUpdateTime":0,"latitude":0.0,"license":"\u0000","longitude":0.0,"personLatitude":0.0,"personLocUpdateTime":0,"personLongitude":0.0,"pitch":0,"plan":"Cannot exceed 90 characters","productType":"Mavic Pro","rawData":[16,2,-26,2,7,47,48,56,82,68,70,55,67,80,48,49,48,50,57,90,0,0,0,0,0,0,0,0,0,0,-17,-1,0,0,0,0,0,0,0,0,13,60,0,0,0,0,0,0,0,0,0,0,0,0,0,0,0,0,0,0,0,0,0,0,0,0,16,19,49,49,50,48,50,50,55,50,57,54,50,56,53,56,55,54,50,50,52,0],"rcID":0,"roll":0,"showLine":false,"sn":"08RDF7CP01029Z","srcType":3,"updateCount":550,"uuid":"1120227296285876224","xSpeed":0.0,"ySpeed":0.0,"yaw":333,"zSpeed":0.0}
{"_id":2,"absoluteHeight":65519.0,"addTime":1634047317099,"areoscopeUUID":"09b2b698-128f-4a37-b6d5-4ecc6a254e6b","flightIndex":1,"flightStartTime":1634047317099,"groundOrSky":0,"height":0.0,"homeLatitude":0.0,"homeLongitude":0.0,"isPushTimeOut":false,"lastDronePushUpdateTime":1634047330715,"lastDronePushUpdateTimeStr":"2021-10-12 17:02:10","lastServerUpdateTime":0,"latitude":0.0,"license":"","longitude":0.0,"personLatitude":0.0,"personLocUpdateTime":0,"personLongitude":0.0,"pitch":0,"plan":"","productType":"Mavic 2 Enterprise","rawData":[16,2,20,0,3,15,50,57,56,67,71,66,75,82,48,65,48,65,52,56,0,0,0,0,0,0,0,0,0,0,-17,-1,0,0,0,0,0,0,0,0,120,22,0,0,0,0,0,0,0,0,0,0,0,0,0,0,0,0,0,0,0,0,0,0,0,0,51,0,0,0,0,0,0,0,0,0,0,0,0,0,0,0,0,0,0,0,0,0],"rcID":0,"roll":0,"showLine":false,"sn":"298CGBKR0A0A48","srcType":3,"updateCount":12,"uuid":"","xSpeed":0.0,"ySpeed":0.0,"yaw":237,"zSpeed":0.0}
{"_id":1,"absoluteHeight":65519.0,"addTime":1634046664026,"areoscopeUUID":"f62456fb-bbf7-43c5-8139-890ccd8a7ca7","flightIndex":1,"flightStartTime":1634046664026,"groundOrSky":0,"height":0.0,"homeLatitude":0.0,"homeLongitude":0.0,"isPushTimeOut":false,"lastDronePushUpdateTime":1634047330857,"lastDronePushUpdateTimeStr":"2021-10-12 17:02:10","lastServerUpdateTime":0,"latitude":0.0,"license":"\u0000","longitude":0.0,"personLatitude":0.0,"personLocUpdateTime":0,"personLongitude":0.0,"pitch":0,"plan":"Cannot exceed 90 characters","productType":"Mavic Pro","rawData":[16,2,-25,2,7,47,48,56,82,68,70,55,67,80,48,49,48,50,57,90,0,0,0,0,0,0,0,0,0,0,-17,-1,0,0,0,0,0,0,0,0,14,60,0,0,0,0,0,0,0,0,0,0,0,0,0,0,0,0,0,0,0,0,0,0,0,0,16,19,49,49,50,48,50,50,55,50,57,54,50,56,53,56,55,54,50,50,52,0],"rcID":0,"roll":0,"showLine":false,"sn":"08RDF7CP01029Z","srcType":3,"updateCount":551,"uuid":"1120227296285876224","xSpeed":0.0,"ySpeed":0.0,"yaw":333,"zSpeed":0.0}
{"_id":2,"absoluteHeight":65519.0,"addTime":1634047317099,"areoscopeUUID":"09b2b698-128f-4a37-b6d5-4ecc6a254e6b","flightIndex":1,"flightStartTime":1634047317099,"groundOrSky":0,"height":0.0,"homeLatitude":0.0,"homeLongitude":0.0,"isPushTimeOut":false,"lastDronePushUpdateTime":1634047331199,"lastDronePushUpdateTimeStr":"2021-10-12 17:02:11","lastServerUpdateTime":0,"latitude":0.0,"license":"","longitude":0.0,"personLatitude":0.0,"personLocUpdateTime":0,"personLongitude":0.0,"pitch":0,"plan":"","productType":"Mavic 2 Enterprise","rawData":[16,2,21,0,3,15,50,57,56,67,71,66,75,82,48,65,48,65,52,56,0,0,0,0,0,0,0,0,0,0,-17,-1,0,0,0,0,0,0,0,0,101,22,0,0,0,0,0,0,0,0,0,0,0,0,0,0,0,0,0,0,0,0,0,0,0,0,51,0,0,0,0,0,0,0,0,0,0,0,0,0,0,0,0,0,0,0,0,0],"rcID":0,"roll":0,"showLine":false,"sn":"298CGBKR0A0A48","srcType":3,"updateCount":13,"uuid":"","xSpeed":0.0,"ySpeed":0.0,"yaw":237,"zSpeed":0.0}
{"_id":2,"absoluteHeight":65519.0,"addTime":1634047317099,"areoscopeUUID":"09b2b698-128f-4a37-b6d5-4ecc6a254e6b","flightIndex":1,"flightStartTime":1634047317099,"groundOrSky":0,"height":0.0,"homeLatitude":0.0,"homeLongitude":0.0,"isPushTimeOut":false,"lastDronePushUpdateTime":1634047332403,"lastDronePushUpdateTimeStr":"2021-10-12 17:02:12","lastServerUpdateTime":0,"latitude":0.0,"license":"","longitude":0.0,"personLatitude":0.0,"personLocUpdateTime":0,"personLongitude":0.0,"pitch":0,"plan":"","productType":"Mavic 2 Enterprise","rawData":[16,2,22,0,3,15,50,57,56,67,71,66,75,82,48,65,48,65,52,56,0,0,0,0,0,0,0,0,0,0,-17,-1,0,0,0,0,0,0,0,0,109,22,0,0,0,0,0,0,0,0,0,0,0,0,0,0,0,0,0,0,0,0,0,0,0,0,51,0,0,0,0,0,0,0,0,0,0,0,0,0,0,0,0,0,0,0,0,0],"rcID":0,"roll":0,"showLine":false,"sn":"298CGBKR0A0A48","srcType":3,"updateCount":14,"uuid":"","xSpeed":0.0,"ySpeed":0.0,"yaw":237,"zSpeed":0.0}
{"_id":1,"absoluteHeight":65519.0,"addTime":1634046664026,"areoscopeUUID":"f62456fb-bbf7-43c5-8139-890ccd8a7ca7","flightIndex":1,"flightStartTime":1634046664026,"groundOrSky":0,"height":0.0,"homeLatitude":0.0,"homeLongitude":0.0,"isPushTimeOut":false,"lastDronePushUpdateTime":1634047332652,"lastDronePushUpdateTimeStr":"2021-10-12 17:02:12","lastServerUpdateTime":0,"latitude":0.0,"license":"\u0000","longitude":0.0,"personLatitude":0.0,"personLocUpdateTime":0,"personLongitude":0.0,"pitch":0,"plan":"Cannot exceed 90 characters","productType":"Mavic Pro","rawData":[16,2,-23,2,7,47,48,56,82,68,70,55,67,80,48,49,48,50,57,90,0,0,0,0,0,0,0,0,0,0,-17,-1,0,0,0,0,0,0,0,0,14,60,0,0,0,0,0,0,0,0,0,0,0,0,0,0,0,0,0,0,0,0,0,0,0,0,16,19,49,49,50,48,50,50,55,50,57,54,50,56,53,56,55,54,50,50,52,0],"rcID":0,"roll":0,"showLine":false,"sn":"08RDF7CP01029Z","srcType":3,"updateCount":552,"uuid":"1120227296285876224","xSpeed":0.0,"ySpeed":0.0,"yaw":333,"zSpeed":0.0}
{"_id":2,"absoluteHeight":65519.0,"addTime":1634047317099,"areoscopeUUID":"09b2b698-128f-4a37-b6d5-4ecc6a254e6b","flightIndex":1,"flightStartTime":1634047317099,"groundOrSky":0,"height":0.0,"homeLatitude":0.0,"homeLongitude":0.0,"isPushTimeOut":false,"lastDronePushUpdateTime":1634047333003,"lastDronePushUpdateTimeStr":"2021-10-12 17:02:13","lastServerUpdateTime":0,"latitude":0.0,"license":"","longitude":0.0,"personLatitude":0.0,"personLocUpdateTime":0,"personLongitude":0.0,"pitch":0,"plan":"","productType":"Mavic 2 Enterprise","rawData":[16,2,23,0,3,15,50,57,56,67,71,66,75,82,48,65,48,65,52,56,0,0,0,0,0,0,0,0,0,0,-17,-1,0,0,0,0,0,0,0,0,112,22,0,0,0,0,0,0,0,0,0,0,0,0,0,0,0,0,0,0,0,0,0,0,0,0,51,0,0,0,0,0,0,0,0,0,0,0,0,0,0,0,0,0,0,0,0,0],"rcID":0,"roll":0,"showLine":false,"sn":"298CGBKR0A0A48","srcType":3,"updateCount":15,"uuid":"","xSpeed":0.0,"ySpeed":0.0,"yaw":237,"zSpeed":0.0}
{"_id":1,"absoluteHeight":65519.0,"addTime":1634046664026,"areoscopeUUID":"f62456fb-bbf7-43c5-8139-890ccd8a7ca7","flightIndex":1,"flightStartTime":1634046664026,"groundOrSky":0,"height":0.0,"homeLatitude":0.0,"homeLongitude":0.0,"isPushTimeOut":false,"lastDronePushUpdateTime":1634047333883,"lastDronePushUpdateTimeStr":"2021-10-12 17:02:13","lastServerUpdateTime":0,"latitude":0.0,"license":"\u0000","longitude":0.0,"personLatitude":0.0,"personLocUpdateTime":0,"personLongitude":0.0,"pitch":0,"plan":"Cannot exceed 90 characters","productType":"Mavic Pro","rawData":[16,2,-22,2,7,47,48,56,82,68,70,55,67,80,48,49,48,50,57,90,0,0,0,0,0,0,0,0,0,0,-17,-1,0,0,0,0,0,0,0,0,14,60,0,0,0,0,0,0,0,0,0,0,0,0,0,0,0,0,0,0,0,0,0,0,0,0,16,19,49,49,50,48,50,50,55,50,57,54,50,56,53,56,55,54,50,50,52,0],"rcID":0,"roll":0,"showLine":false,"sn":"08RDF7CP01029Z","srcType":3,"updateCount":553,"uuid":"1120227296285876224","xSpeed":0.0,"ySpeed":0.0,"yaw":333,"zSpeed":0.0}
{"_id":2,"absoluteHeight":65519.0,"addTime":1634047317099,"areoscopeUUID":"09b2b698-128f-4a37-b6d5-4ecc6a254e6b","flightIndex":1,"flightStartTime":1634047317099,"groundOrSky":0,"height":0.0,"homeLatitude":0.0,"homeLongitude":0.0,"isPushTimeOut":false,"lastDronePushUpdateTime":1634047333938,"lastDronePushUpdateTimeStr":"2021-10-12 17:02:13","lastServerUpdateTime":0,"latitude":0.0,"license":"","longitude":0.0,"personLatitude":0.0,"personLocUpdateTime":0,"personLongitude":0.0,"pitch":0,"plan":"","productType":"Mavic 2 Enterprise","rawData":[16,2,23,0,3,15,50,57,56,67,71,66,75,82,48,65,48,65,52,56,0,0,0,0,0,0,0,0,0,0,-17,-1,0,0,0,0,0,0,0,0,112,22,0,0,0,0,0,0,0,0,0,0,0,0,0,0,0,0,0,0,0,0,0,0,0,0,51,0,0,0,0,0,0,0,0,0,0,0,0,0,0,0,0,0,0,0,0,0],"rcID":0,"roll":0,"showLine":false,"sn":"298CGBKR0A0A48","srcType":3,"updateCount":16,"uuid":"","xSpeed":0.0,"ySpeed":0.0,"yaw":237,"zSpeed":0.0}
{"_id":1,"absoluteHeight":65519.0,"addTime":1634046664026,"areoscopeUUID":"f62456fb-bbf7-43c5-8139-890ccd8a7ca7","flightIndex":1,"flightStartTime":1634046664026,"groundOrSky":0,"height":0.0,"homeLatitude":0.0,"homeLongitude":0.0,"isPushTimeOut":false,"lastDronePushUpdateTime":1634047334449,"lastDronePushUpdateTimeStr":"2021-10-12 17:02:14","lastServerUpdateTime":0,"latitude":0.0,"license":"\u0000","longitude":0.0,"personLatitude":0.0,"personLocUpdateTime":0,"personLongitude":0.0,"pitch":0,"plan":"Cannot exceed 90 characters","productType":"Mavic Pro","rawData":[16,2,-21,2,7,47,48,56,82,68,70,55,67,80,48,49,48,50,57,90,0,0,0,0,0,0,0,0,0,0,-17,-1,0,0,0,0,0,0,0,0,16,60,0,0,0,0,0,0,0,0,0,0,0,0,0,0,0,0,0,0,0,0,0,0,0,0,16,19,49,49,50,48,50,50,55,50,57,54,50,56,53,56,55,54,50,50,52,0],"rcID":0,"roll":0,"showLine":false,"sn":"08RDF7CP01029Z","srcType":3,"updateCount":554,"uuid":"1120227296285876224","xSpeed":0.0,"ySpeed":0.0,"yaw":333,"zSpeed":0.0}
{"_id":2,"absoluteHeight":65519.0,"addTime":1634047317099,"areoscopeUUID":"09b2b698-128f-4a37-b6d5-4ecc6a254e6b","flightIndex":1,"flightStartTime":1634047317099,"groundOrSky":0,"height":0.0,"homeLatitude":0.0,"homeLongitude":0.0,"isPushTimeOut":false,"lastDronePushUpdateTime":1634047334494,"lastDronePushUpdateTimeStr":"2021-10-12 17:02:14","lastServerUpdateTime":0,"latitude":0.0,"license":"","longitude":0.0,"personLatitude":0.0,"personLocUpdateTime":0,"personLongitude":0.0,"pitch":0,"plan":"","productType":"Mavic 2 Enterprise","rawData":[17,50,57,56,67,71,66,75,82,48,65,48,65,52,56,0,0,-52,-86,2,0,0,0,0,0,0,0,0,0,0,0,0,0,0,0,0,0,0,0,0,0,0,0,0,0,0,0,0,0,0,0,0,0,0,0,0,0,0,0,0,0,0,0,0,0,0,0,0,0,0,0,0,0,0,0,0,0,0,0,0,0,0,0,0,0,0,0,0,0,0,0,0,0,0,0,0,0,0,0,0,0,0,0,0,0,0,0,0,0,0,0,0,0,0,0,0,0,0,0,0,0,0,0,0,0,0,0,0,0,0,0,0,0,0,0,0,0,0,0,0,0],"rcID":0,"roll":0,"showLine":false,"sn":"298CGBKR0A0A48","srcType":3,"updateCount":17,"uuid":"","xSpeed":0.0,"ySpeed":0.0,"yaw":237,"zSpeed":0.0}
{"_id":1,"absoluteHeight":65519.0,"addTime":1634046664026,"areoscopeUUID":"f62456fb-bbf7-43c5-8139-890ccd8a7ca7","flightIndex":1,"flightStartTime":1634046664026,"groundOrSky":0,"height":0.0,"homeLatitude":0.0,"homeLongitude":0.0,"isPushTimeOut":false,"lastDronePushUpdateTime":1634047335367,"lastDronePushUpdateTimeStr":"2021-10-12 17:02:15","lastServerUpdateTime":0,"latitude":0.0,"license":"\u0000","longitude":0.0,"personLatitude":0.0,"personLocUpdateTime":0,"personLongitude":0.0,"pitch":0,"plan":"Cannot exceed 90 characters","productType":"Mavic Pro","rawData":[16,2,-20,2,7,47,48,56,82,68,70,55,67,80,48,49,48,50,57,90,0,0,0,0,0,0,0,0,0,0,-17,-1,0,0,0,0,0,0,0,0,16,60,0,0,0,0,0,0,0,0,0,0,0,0,0,0,0,0,0,0,0,0,0,0,0,0,16,19,49,49,50,48,50,50,55,50,57,54,50,56,53,56,55,54,50,50,52,0],"rcID":0,"roll":0,"showLine":false,"sn":"08RDF7CP01029Z","srcType":3,"updateCount":555,"uuid":"1120227296285876224","xSpeed":0.0,"ySpeed":0.0,"yaw":333,"zSpeed":0.0}
